City,Latitude,Longitude,Max Temp(F),Humidity%,Cloudiness%,Windspeed(MPH),Hemisphere
tanabe,33.73,135.37,86.0,70,40,4.7,North
longyearbyen,78.22,15.64,46.4,93,40,6.93,North
vaini,-21.2,-175.2,75.2,69,20,8.05,South
albany,42.6,-73.97,70.0,85,57,8.79,North
sao joao da barra,-21.64,-41.05,67.77,69,21,7.29,South
luderitz,-26.65,15.16,53.6,66,0,16.11,South
jamestown,42.1,-79.24,66.99,93,90,6.93,North
georgetown,5.41,100.34,84.2,74,20,10.29,North
mar del plata,-38.0,-57.56,59.0,100,100,10.04,South
junagarh,19.87,82.93,77.41,87,100,6.64,North
hithadhoo,-0.6,73.08,81.46,79,100,16.28,South
yulara,-25.24,130.99,60.8,77,75,2.24,South
geraldton,-28.77,114.6,57.2,82,3,14.99,South
hermanus,-34.42,19.23,37.0,95,2,8.63,South
rikitea,-23.12,-134.97,73.17,90,100,12.21,South
dwarka,22.24,68.97,85.28,78,71,12.53,North
busselton,-33.65,115.33,61.0,66,1,14.07,South
mahebourg,-20.41,57.7,68.0,56,75,12.75,South
sao filipe,14.9,-24.5,76.23,80,69,6.71,North
khatanga,71.97,102.5,61.86,90,100,8.99,North
butaritari,3.07,172.79,83.77,76,67,12.86,North
berlevag,70.86,29.09,49.55,90,70,5.99,North
meadow lake,34.8,-106.54,93.2,13,40,10.29,North
kruisfontein,-34.0,24.73,51.01,78,100,2.44,South
kapaa,22.08,-159.32,82.4,69,90,17.22,North
altay,47.87,88.12,71.96,39,83,3.98,North
hilo,19.73,-155.09,82.4,65,90,9.17,North
sinnamary,5.38,-52.95,78.73,84,53,8.9,North
esperance,-33.87,121.9,55.4,100,90,21.92,South
ahipara,-35.17,173.17,62.51,64,92,1.72,South
barrow,71.29,-156.79,42.8,87,90,4.7,North
nikolskoye,59.7,30.79,64.4,88,75,8.95,North
lagoa,39.05,-27.98,73.2,90,58,14.47,North
leningradskiy,69.38,178.42,37.27,83,99,16.04,North
qasigiannguit,68.82,-51.19,41.0,86,1,3.36,North
sibolga,1.74,98.78,80.82,63,100,0.29,North
ewa beach,21.32,-158.01,89.6,43,40,12.75,North
tuatapere,-46.13,167.68,51.01,80,62,4.0,South
punta arenas,-53.15,-70.92,37.4,78,57,11.41,South
srednekolymsk,67.45,153.68,63.54,44,74,11.65,North
mehamn,71.04,27.85,49.35,90,85,5.68,North
brae,60.4,-1.35,53.6,100,96,5.82,North
phan thiet,10.93,108.1,83.93,73,100,11.27,North
rjukan,59.88,8.59,51.01,91,100,10.0,North
mataura,-46.19,168.86,51.01,80,56,4.0,South
saint-philippe,-21.36,55.77,64.4,59,20,6.93,South
kamenka,51.32,42.77,61.0,72,0,5.01,North
carutapera,-1.2,-46.02,75.49,92,16,4.21,South
okha,53.57,142.95,59.67,71,100,12.46,North
nsoko,-27.03,31.95,62.6,88,32,3.36,South
katsuura,35.13,140.3,90.0,74,20,12.75,North
rio gallegos,-51.62,-69.22,37.4,74,99,5.82,South
pokhara,28.23,83.98,76.75,81,100,1.77,North
kirakira,-10.45,161.92,84.56,72,57,10.18,South
alofi,-19.06,-169.92,80.6,83,75,5.82,South
casablanca,33.59,-7.62,73.0,100,75,5.82,North
lebu,-37.62,-73.65,51.33,90,36,5.32,South
mayo,38.89,-76.51,78.8,83,75,4.7,North
poum,-20.23,164.02,71.37,63,1,5.7,South
pevek,69.7,170.31,32.49,97,100,11.3,North
rudbar,30.15,62.6,76.03,34,0,11.25,North
kirkwall,58.98,-2.96,59.0,93,86,10.29,North
moerai,-22.43,-151.33,71.02,66,71,7.54,South
gerzat,45.82,3.14,51.8,81,0,1.34,North
klaksvik,62.23,-6.59,51.8,100,100,11.41,North
inongo,-1.95,18.27,69.15,84,59,5.61,South
fort nelson,58.81,-122.7,77.0,27,20,17.22,North
puerto ayora,-0.74,-90.35,66.99,94,73,7.0,South
chuy,-33.7,-53.46,57.61,79,16,7.63,South
port elizabeth,-33.92,25.57,50.0,93,90,12.75,South
flinders,-34.58,150.86,57.99,47,0,7.0,South
dikson,73.51,80.55,46.99,85,4,19.98,North
launceston,-41.45,147.17,48.0,75,90,4.7,South
pokaran,26.92,71.92,90.21,62,0,11.43,North
chokurdakh,70.63,147.92,54.39,64,86,3.29,North
aksay,47.26,39.87,55.4,82,0,6.71,North
muyezerskiy,63.93,31.65,55.78,94,100,4.81,North
cidreira,-30.18,-50.21,60.19,91,0,13.35,South
pochutla,15.74,-96.47,77.86,91,97,3.31,North
sept-iles,50.2,-66.38,63.0,82,75,3.36,North
cukai,4.25,103.42,80.6,88,20,1.12,North
otta,61.77,9.54,48.61,74,100,6.46,North
bonavista,48.65,-53.11,54.0,75,100,5.99,North
tuktoyaktuk,69.45,-133.04,50.0,87,75,9.17,North
sakakah,29.97,40.21,82.4,28,0,11.41,North
atuona,-9.8,-139.03,79.2,74,33,20.02,South
ilhabela,-23.78,-45.36,65.97,81,27,7.43,South
yashan,22.2,109.94,84.29,78,52,7.58,North
hobart,-42.88,147.33,46.99,65,75,21.92,South
vicente guerrero,19.12,-98.17,61.05,84,100,5.03,North
portales,34.19,-103.33,89.01,27,1,12.75,North
udachnyy,66.42,112.4,71.6,37,0,2.24,North
new norfolk,-42.78,147.06,46.99,76,100,5.01,South
bull savanna,17.89,-77.59,78.01,86,96,9.42,North
fortuna,40.6,-124.16,62.01,89,97,3.0,North
dingle,11.0,122.67,84.49,78,95,6.11,North
ushuaia,-54.8,-68.3,51.8,34,20,4.7,South
upernavik,72.79,-56.15,38.62,74,18,9.4,North
acapulco,16.86,-99.89,84.2,66,90,8.05,North
sechura,-5.56,-80.82,62.19,79,0,13.94,South
akyab,20.15,92.9,82.89,84,100,19.13,North
chulman,56.85,124.91,71.55,49,98,1.36,North
saint-joseph,-21.37,55.62,64.4,59,20,6.93,South
den helder,52.96,4.76,64.4,72,90,13.87,North
freeport,40.66,-73.58,77.0,73,1,10.29,North
pasighat,28.07,95.33,89.29,64,100,1.63,North
hastings,50.86,0.57,60.8,87,1,13.87,North
norfolk,42.17,-71.25,75.2,69,20,20.8,North
kysyl-syr,63.9,122.76,76.1,46,100,1.72,North
kahului,20.89,-156.47,89.6,46,40,21.92,North
qaanaaq,77.48,-69.36,30.52,89,48,1.32,North
bluff,-46.6,168.33,51.01,80,91,4.0,South
hadejia,12.45,10.04,75.29,79,74,15.57,North
cururupu,-1.83,-44.87,74.61,93,1,2.46,South
shimoda,34.67,138.95,82.99,83,20,8.05,North
ulaangom,49.98,92.07,67.59,51,100,3.2,North
vila velha,-20.33,-40.29,64.4,93,90,5.82,South
xam nua,20.42,104.04,70.07,95,100,0.63,North
victoria,22.29,114.16,84.0,83,100,11.01,North
tambura,5.6,27.47,66.45,95,100,3.18,North
ketchikan,55.34,-131.65,57.2,100,90,13.87,North
torbay,47.67,-52.73,55.99,100,90,18.34,North
yellowknife,62.46,-114.35,60.8,93,90,9.17,North
bouca,6.51,18.27,68.43,94,100,1.61,North
atambua,-9.11,124.89,82.62,46,45,1.34,South
bereda,43.27,-7.54,59.0,100,52,1.99,North
dolinsk,47.35,142.8,59.0,87,75,11.18,North
santo domingo,18.5,-69.99,84.0,96,14,1.01,North
cape town,-33.93,18.42,51.01,61,0,14.99,South
ilulissat,69.22,-51.1,41.0,86,57,3.36,North
hami,42.8,93.45,93.38,18,3,10.87,North
suzun,53.78,82.31,68.61,58,0,10.89,North
usoke,-5.17,32.35,65.32,49,60,6.69,South
lingyuan,41.24,119.4,87.98,32,100,7.52,North
saqqez,36.25,46.27,57.72,65,0,2.98,North
port alfred,-33.59,26.89,55.06,75,100,7.07,South
san cristobal,7.77,-72.22,66.6,92,75,4.59,North
la carlota,10.42,122.92,85.44,71,100,0.45,North
dali,25.7,100.18,73.2,71,16,1.9,North
klamath falls,42.22,-121.78,89.6,17,1,15.95,North
nuuk,64.18,-51.72,42.8,100,99,5.82,North
shestakovo,56.49,103.96,73.56,47,1,3.04,North
jumla,29.27,82.18,66.54,63,99,1.45,North
padang,-0.95,100.35,82.22,64,100,2.26,South
saskylakh,71.92,114.08,77.29,40,98,11.43,North
port-cartier,50.03,-66.87,63.0,82,75,3.36,North
sakaiminato,35.55,133.23,87.8,62,75,1.12,North
ponta do sol,32.67,-17.1,69.01,75,5,3.78,North
moranbah,-22.0,148.05,76.12,33,0,4.38,South
rosario,-32.95,-60.64,71.6,56,0,8.05,South
te anau,-45.42,167.72,52.9,78,29,0.92,South
beloha,-25.17,45.05,59.16,67,0,5.99,South
castro,-24.79,-50.01,51.17,91,0,4.25,South
rapid valley,44.06,-103.15,82.4,39,1,8.05,North
westport,41.14,-73.36,75.99,82,6,9.4,North
arraial do cabo,-22.97,-42.03,68.0,68,0,5.82,South
tasiilaq,65.61,-37.64,39.2,100,0,3.36,North
bengkulu,-3.8,102.27,77.2,80,100,11.07,South
makakilo city,21.35,-158.09,89.6,43,40,12.75,North
kodiak,57.79,-152.41,58.41,73,41,5.93,North
senador jose porfirio,-2.59,-51.95,75.24,85,7,1.34,South
sovetskaya,44.78,41.17,62.01,4,0,5.99,North
henties bay,-22.12,14.28,57.0,91,11,9.53,South
gat,31.61,34.76,75.99,82,2,6.2,North
san policarpo,12.18,125.51,80.62,83,100,1.32,North
avarua,-21.21,-159.78,73.4,94,100,8.05,South
vavatenina,-17.47,49.2,62.64,81,93,2.71,South
san patricio,19.22,-104.7,82.4,74,75,11.41,North
kuryk,43.2,51.65,71.85,68,0,8.32,North
plettenberg bay,-34.05,23.37,51.76,69,97,3.62,South
katobu,-4.94,122.53,84.78,55,26,4.34,South
yuzhno-kurilsk,44.03,145.86,67.53,96,100,1.9,North
ribeira grande,38.52,-28.7,73.27,92,54,11.36,North
souillac,-20.52,57.52,68.0,56,75,12.75,South
saint-georges,12.06,-61.75,80.6,88,20,11.41,North
noshiro,40.2,140.02,78.8,88,75,10.29,North
tarancon,40.01,-3.01,73.99,32,1,12.88,North
providencia,28.72,-111.58,95.0,47,0,8.99,North
nago,26.59,127.98,89.6,66,20,10.29,North
batagay-alyta,67.8,130.41,67.8,41,64,2.77,North
sumbe,-11.21,13.84,68.25,87,29,6.78,South
neuquen,-38.95,-68.06,51.8,62,0,3.36,South
never,46.99,3.16,55.4,62,0,1.52,North
nchelenge,-9.35,28.73,60.98,60,32,5.39,South
sabang,5.89,95.32,83.62,67,100,9.44,North
srandakan,-7.94,110.25,79.27,74,90,10.4,South
faya,18.39,42.45,64.4,87,20,5.77,North
methoni,36.82,21.7,78.01,82,0,3.36,North
naberera,-4.2,36.93,59.81,85,99,10.02,South
bredasdorp,-34.53,20.04,41.0,93,88,4.7,South
shalinskoye,55.72,93.76,60.64,72,12,4.7,North
bilma,18.69,12.92,89.78,34,30,10.27,North
saint george,37.1,-113.58,100.4,8,1,16.11,North
venado tuerto,-33.75,-61.97,70.0,56,35,14.0,South
mogadishu,2.04,45.34,76.48,84,99,18.32,North
gainesville,29.65,-82.32,82.0,78,1,9.17,North
carnarvon,-24.87,113.63,64.4,72,1,12.75,South
usinsk,65.99,57.53,55.54,81,0,11.63,North
talara,-4.58,-81.27,62.31,86,15,16.02,South
kigoma,-4.88,29.63,73.44,57,23,0.65,South
iqaluit,63.75,-68.51,50.0,100,75,0.38,North
salta,-24.79,-65.41,62.6,59,0,3.36,South
kawalu,-7.38,108.21,75.97,78,76,3.89,South
severo-kurilsk,50.68,156.12,56.97,80,100,1.28,North
bambous virieux,-20.34,57.76,68.0,56,75,12.75,South
hervey bay,-25.3,152.85,78.01,53,0,10.29,South
husavik,66.04,-17.34,50.0,93,100,2.24,North
port-gentil,-0.72,8.78,75.74,75,100,8.14,South
igrim,63.19,64.42,59.22,74,2,2.86,North
vestmannaeyjar,63.44,-20.27,51.75,90,100,19.73,North
tual,-5.67,132.75,77.63,85,76,16.37,South
yining,29.04,114.56,92.53,56,0,3.89,North
belmonte,-15.86,-38.88,71.6,56,20,5.82,South
praia,14.92,-23.51,78.8,74,20,6.93,North
kaitangata,-46.28,169.85,53.01,54,68,5.23,South
norman wells,65.28,-126.83,60.8,93,90,11.41,North
kloulklubed,7.04,134.26,78.8,88,90,6.93,North
pangkalanbuun,-2.68,111.62,81.72,88,98,2.89,South
east wenatchee bench,47.43,-120.28,90.0,25,1,10.29,North
coihaique,-45.58,-72.07,35.6,85,84,5.82,South
vardo,70.37,31.11,51.69,89,50,12.59,North
airai,-8.93,125.41,73.02,43,26,2.42,South
lompoc,34.64,-120.46,60.8,82,90,12.75,North
san quintin,30.48,-115.95,69.24,78,0,15.01,North
east london,-33.02,27.91,57.92,72,99,9.93,South
irtyshskiy,58.33,68.13,70.99,81,0,4.36,North
lichuan,30.3,108.85,79.75,64,79,5.44,North
tilichiki,60.47,166.1,61.65,54,99,9.51,North
gorontalo,0.54,123.06,85.89,64,71,5.97,North
gamba,-2.65,10.0,72.23,80,100,4.47,South
half moon bay,37.46,-122.43,66.0,93,90,9.17,North
grand gaube,-20.01,57.66,64.0,77,81,5.99,South
vallenar,-28.57,-70.76,60.82,67,0,2.71,South
bethel,41.37,-73.41,72.0,73,1,5.82,North
yuanping,38.72,112.76,66.29,92,100,4.72,North
petropavl,54.88,69.16,68.77,71,32,9.6,North
ixtapa,20.7,-105.2,82.4,94,90,1.5,North
dunedin,-45.87,170.5,53.01,70,100,3.0,South
palmer,42.16,-72.33,75.0,73,90,16.11,North
sambava,-14.27,50.17,67.26,76,14,10.33,South
mozarlandia,-14.74,-50.57,70.09,39,0,7.09,South
egvekinot,66.32,-179.17,46.09,85,100,4.65,North
axim,4.87,-2.24,71.42,83,42,7.05,North
northam,51.03,-4.22,62.01,92,77,13.0,North
chake chake,-5.25,39.77,75.6,83,63,10.83,South
ancud,-41.87,-73.82,45.0,100,75,8.05,South
sile,41.18,29.61,73.99,65,0,1.01,North
viedma,-40.81,-63.0,45.0,89,100,5.17,South
barahona,18.21,-71.1,79.97,80,1,6.24,North
coruripe,-10.13,-36.18,72.9,82,13,11.39,South
gazli,40.13,63.45,73.22,41,16,19.86,North
isangel,-19.55,169.27,78.8,61,75,9.17,South
balikpapan,-1.27,116.83,82.4,94,20,6.93,South
vaitape,-16.52,-151.75,78.67,72,21,11.41,South
bosaso,11.28,49.18,88.74,40,100,15.59,North
wilmington,34.23,-77.94,82.4,69,1,9.17,North
hasaki,35.73,140.83,91.0,70,75,4.7,North
alice springs,-23.7,133.88,77.0,22,74,10.29,South
fatezh,52.09,35.86,57.47,80,0,6.02,North
nueva loja,0.08,-76.88,71.83,86,100,2.21,North
andenes,69.31,16.12,53.6,87,50,6.93,North
asau,46.43,26.4,54.0,96,0,1.86,North
kidal,18.44,1.41,81.14,65,45,8.32,North
novobiryusinskiy,56.96,97.71,66.63,63,2,6.08,North
rivera,-30.91,-55.55,61.21,92,0,6.62,South
imbituva,-25.23,-50.6,51.49,85,0,2.71,South
tiksi,71.69,128.87,59.47,51,0,3.18,North
touros,-5.2,-35.46,71.6,83,20,4.7,South
sawtell,-30.38,153.1,68.0,68,0,11.41,South
kralendijk,12.15,-68.27,84.2,79,0,18.34,North
tolaga bay,-38.37,178.3,58.37,69,77,4.21,South
el derrumbo,-2.78,-78.97,53.6,62,23,8.05,South
thompson,55.74,-97.86,77.0,47,20,8.05,North
kutum,14.2,24.67,70.45,81,52,14.27,North
punta gorda,26.93,-82.05,79.0,88,1,5.82,North
baruun-urt,46.68,113.28,70.81,52,0,4.07,North
komsomolskiy,40.43,71.72,75.2,38,0,4.7,North
bara,10.37,10.73,70.86,92,68,6.2,North
mvuma,-19.28,30.53,48.38,69,1,1.01,South
salaberry-de-valleyfield,45.25,-74.13,68.0,88,100,8.21,North
sobradinho,-12.83,-39.1,63.55,97,6,5.19,South
monte patria,-30.69,-70.95,61.0,57,0,1.54,South
aleksandrov gay,50.15,48.57,64.11,88,84,17.54,North
villacarrillo,38.12,-3.08,78.01,46,17,2.1,North
mnogovershinnyy,53.94,139.92,58.1,65,99,9.57,North
sitka,57.05,-135.33,57.2,93,90,23.04,North
sibu,2.3,111.82,73.4,94,40,4.7,North
jinchang,38.5,102.17,77.49,50,79,11.7,North
pangnirtung,66.15,-65.71,50.04,84,100,4.16,North
zunyi,27.69,106.91,78.78,74,47,6.49,North
codrington,-38.27,141.97,49.24,64,85,13.94,South
provideniya,64.38,-173.3,53.6,66,40,17.9,North
okaihau,-35.32,173.78,62.01,3,97,5.99,South
nokaneng,-19.67,22.27,53.19,42,0,6.38,South
darhan,49.49,105.92,69.17,72,6,3.74,North
mahon,39.89,4.27,73.4,73,20,6.93,North
kushima,31.46,131.23,87.8,79,40,8.05,North
boueni,-12.9,45.08,75.2,69,20,14.99,South
sinuknipan,13.89,122.64,85.15,76,100,5.01,North
polonnaruwa,7.93,81.0,81.9,65,100,14.56,North
vanimo,-2.67,141.3,83.7,76,92,8.39,South
riviere-au-renard,49.0,-64.4,64.4,77,75,3.36,North
antalaha,-14.9,50.28,67.14,85,96,7.58,South
wattegama,6.8,81.48,78.8,100,20,4.7,North
guerrero negro,27.98,-114.06,72.39,75,0,16.02,North
comodoro rivadavia,-45.87,-67.5,42.8,56,0,9.17,South
quang ngai,15.12,108.8,89.49,61,55,2.53,North
nadadores,27.05,-101.6,90.0,32,0,5.99,North
weyburn,49.67,-103.85,68.0,84,25,1.01,North
nome,64.5,-165.41,57.99,66,1,11.41,North
derzhavinsk,51.1,66.32,71.22,59,35,16.73,North
dongsheng,39.82,109.98,66.0,64,91,20.4,North
adrar,20.5,-10.07,92.57,37,94,18.54,North
zalantun,48.0,122.72,72.91,69,60,8.66,North
jaque,7.52,-78.17,79.86,83,99,3.02,North
hofn,64.25,-15.21,51.1,88,100,17.54,North
luba,3.46,8.55,75.2,100,40,8.05,North
kungurtug,50.6,97.52,59.97,68,100,2.71,North
great bend,38.36,-98.76,73.4,60,1,10.29,North
la romana,18.43,-68.97,78.8,94,40,7.76,North
novovorontsovka,47.5,33.92,68.9,60,0,7.67,North
kontagora,10.4,5.47,70.11,93,77,2.95,North
talnakh,69.49,88.4,62.6,88,100,6.71,North
winton,37.39,-120.61,93.0,33,1,6.93,North
marzuq,14.4,46.47,78.93,61,84,5.44,North
rawson,-43.3,-65.1,47.82,57,0,14.65,South
cherskiy,68.75,161.3,42.53,75,100,12.08,North
hobyo,5.35,48.53,78.3,75,30,24.43,North
verkhnyaya inta,65.98,60.31,58.78,70,15,12.19,North
kavaratti,10.57,72.64,83.12,79,100,27.45,North
novoagansk,61.94,76.66,76.46,57,0,2.82,North
roma,43.21,-75.46,66.99,93,20,3.36,North
fontenay-le-comte,46.58,-1.0,59.0,100,0,2.24,North
sola,-13.88,167.55,76.8,85,4,19.51,South
saldanha,-33.01,17.94,50.56,65,0,17.16,South
xai-xai,-25.05,33.64,60.85,74,0,4.92,South
cayhagan,9.67,122.43,83.57,75,91,2.15,North
bambui,-20.01,-45.98,57.96,64,0,3.71,South
clyde river,70.47,-68.59,41.0,100,90,6.93,North
hvide sande,56.0,8.13,55.99,79,100,3.0,North
quepos,9.42,-84.17,71.6,94,75,3.36,North
lorengau,-2.02,147.27,84.85,75,33,13.69,South
calbuco,-41.77,-73.13,44.6,87,90,6.93,South
shakawe,-18.37,21.85,50.5,46,0,2.73,South
stepnyak,52.83,70.78,66.85,76,0,11.18,North
kavieng,-2.57,150.8,84.63,73,95,15.7,South
iseyin,7.97,3.6,66.85,95,0,3.94,North
omboue,-1.57,9.26,74.43,76,100,5.28,South
date,42.47,140.87,76.01,79,55,6.02,North
faanui,-16.48,-151.75,77.79,73,24,11.43,South
sumisip,6.42,121.97,84.2,74,75,2.24,North
hualmay,-11.1,-77.61,58.66,83,2,7.87,South
cairns,-16.92,145.77,81.0,57,75,8.05,South
portland,45.52,-122.68,86.0,42,20,16.11,North
lasa,46.62,10.7,48.99,81,5,10.29,North
ostrovnoy,68.05,39.51,56.16,86,92,15.1,North
puerto madero,14.72,-92.42,82.4,100,75,2.13,North
ures,29.43,-110.4,98.01,45,12,3.0,North
bud,39.45,-86.18,69.01,84,2,6.35,North
the valley,18.22,-63.06,82.99,78,40,8.05,North
osoyoos,49.03,-119.45,93.2,25,5,9.17,North
san andres,12.58,-81.7,82.4,83,40,4.7,North
ngunguru,-35.62,174.5,62.01,3,95,5.99,South
baykit,61.67,96.37,73.04,43,82,9.4,North
contamana,-7.33,-75.02,74.89,64,0,1.5,South
norsup,-16.07,167.38,80.6,74,75,5.82,South
anori,-3.77,-61.64,77.72,60,0,1.57,South
cap malheureux,-19.98,57.61,64.0,77,76,5.99,South
oga,46.46,10.35,48.99,100,59,2.24,North
enshi,30.3,109.48,89.06,60,36,1.21,North
lata,40.16,-8.33,64.0,78,53,2.15,North
ulagan,50.63,87.96,61.83,65,68,1.68,North
aberdeen,57.14,-2.1,62.6,82,90,9.17,North
ugra,54.78,34.33,55.96,88,100,5.48,North
ilo,-17.64,-71.34,57.9,77,20,5.53,South
murgab,37.5,61.97,75.2,41,0,9.17,North
parfenyevo,58.48,43.41,56.08,90,9,3.85,North
breves,-1.68,-50.48,75.63,85,27,2.75,South
rincon,32.3,-81.24,82.4,83,75,3.36,North
xichang,27.9,102.26,75.49,71,48,2.24,North
panguna,-6.32,155.48,83.25,63,99,3.53,South
iskateley,67.68,53.15,55.56,83,0,10.69,North
kendari,-3.94,122.5,85.08,63,1,2.21,South
visnes,59.36,5.22,57.99,93,100,26.4,North
corinto,37.94,22.96,73.99,56,0,1.01,North
namibe,-15.2,12.15,66.54,85,72,3.27,South
muli,2.92,73.57,82.92,77,100,12.1,North
pacifica,37.61,-122.49,63.0,93,90,9.17,North
cabo san lucas,22.89,-109.91,87.8,48,20,16.11,North
nanortalik,60.14,-45.24,43.45,86,2,5.7,North
riyadh,24.69,46.72,86.0,17,0,4.7,North
lakeway,30.36,-97.98,89.01,43,1,5.82,North
sendhwa,21.68,75.1,77.47,88,91,8.52,North
najran,17.49,44.13,82.4,45,40,11.41,North
tabatinga,-4.25,-69.94,75.2,100,47,2.24,South
alenquer,-1.94,-54.74,76.44,82,4,2.93,South
kuusamo,65.97,29.18,55.4,93,40,3.36,North
buala,-8.14,159.59,85.91,70,13,9.84,South
lubango,-14.92,13.49,54.82,39,0,4.12,South
bozoum,6.32,16.38,66.69,95,100,2.62,North
piopio,-38.47,175.02,60.87,51,100,1.88,South
mitu,1.2,-70.17,71.4,97,16,2.28,North
ayan,56.45,138.17,58.23,71,0,11.92,North
dangriga,16.97,-88.23,84.0,83,100,3.0,North
worksop,53.3,-1.12,64.4,77,85,18.34,North
margate,51.38,1.39,63.0,75,47,3.0,North
imbituba,-28.24,-48.67,64.4,88,40,8.05,South
talavera de la reina,39.96,-4.83,74.05,26,9,5.82,North
verkhnevilyuysk,63.45,120.32,73.22,50,100,2.91,North
hambantota,6.12,81.12,78.8,100,20,4.7,North
demidov,55.27,31.52,60.94,83,96,9.44,North
strezhevoy,60.73,77.59,75.2,69,0,2.24,North
iquique,-20.22,-70.14,62.6,63,90,10.29,South
takab,36.4,47.11,54.66,74,0,4.61,North
teya,60.38,92.63,66.88,58,70,4.34,North
stonewall,50.13,-97.33,73.4,46,20,9.17,North
sioux lookout,50.1,-91.92,68.0,49,20,4.7,North
barstow,34.9,-117.02,98.6,13,1,23.04,North
vao,-22.67,167.48,67.3,66,89,5.57,South
saint simons,31.14,-81.39,84.2,94,75,9.17,North
antofagasta,-23.65,-70.4,57.2,82,90,6.93,South
pudozh,61.81,36.53,58.66,95,67,7.02,North
san sebastian,43.31,-1.98,62.6,93,0,4.7,North
puerto escondido,15.85,-97.07,81.84,80,100,3.87,North
hailun,47.45,126.93,74.86,72,69,1.99,North
elat,29.56,34.95,75.25,52,0,5.26,North
vestmanna,62.16,-7.17,51.8,100,95,11.41,North
patos,-7.02,-37.28,70.2,60,57,14.29,South
russell,32.35,-85.2,86.0,78,1,3.29,North
haines junction,60.75,-137.51,59.07,58,100,6.62,North
bubaque,11.28,-15.83,79.36,84,100,23.22,North
vagay,57.94,69.02,71.8,87,6,3.33,North
saint-leu,-21.15,55.28,64.4,59,20,6.93,South
tura,25.52,90.22,82.09,87,97,3.49,North
havoysund,71.0,24.66,50.0,100,90,4.7,North
morondava,-20.28,44.28,65.55,78,0,5.79,South
salalah,17.02,54.09,80.6,83,100,8.05,North
chernyshevskiy,63.01,112.47,71.78,51,79,6.44,North
broome,42.25,-75.83,68.0,88,75,8.05,North
kenai,60.55,-151.26,71.6,40,1,6.93,North
seshcha,53.74,33.34,56.41,88,98,7.36,North
saint-pierre,-21.34,55.48,64.4,59,20,6.93,South
camana,-16.62,-72.71,57.87,79,12,7.45,South
rochegda,62.8,43.25,59.63,96,100,5.19,North
san vicente,-26.62,-54.13,57.27,78,0,3.22,South
quatre cocos,-20.21,57.76,68.0,56,75,12.75,South
muisne,0.6,-80.03,72.99,87,100,9.69,North
palestine,31.92,35.2,77.0,83,40,5.82,North
kano,12.0,8.52,72.52,85,99,13.58,North
beyneu,45.32,55.2,68.09,58,49,7.54,North
puerto narino,-3.77,-70.38,75.2,100,82,2.24,South
quetigny,47.32,5.12,59.0,67,47,4.7,North
paidha,2.42,30.99,58.89,86,90,4.09,North
vila,42.03,-8.16,64.0,73,4,1.99,North
manicore,-5.81,-61.3,78.33,52,0,1.16,South
dukat,62.55,155.55,51.1,55,100,10.56,North
mount gambier,-37.83,140.77,50.0,71,40,6.93,South
rotifunk,8.23,-12.68,70.12,92,38,2.57,North
cassilandia,-19.11,-51.73,65.59,37,0,4.09,South
ust-kuyga,70.02,135.6,66.02,39,0,7.65,North
constitucion,-35.33,-72.42,55.9,84,76,3.47,South
shyryayeve,47.38,30.2,65.3,54,0,3.24,North
sur,22.57,59.53,87.42,69,100,3.6,North
harper,4.38,-7.72,71.83,79,58,5.06,North
griffith,41.53,-87.42,66.2,59,40,6.67,North
sladkovo,55.53,70.34,69.15,69,51,8.34,North
goderich,43.75,-81.72,66.0,62,42,16.13,North
maceio,-9.67,-35.74,73.4,78,40,5.82,South
marawi,8.0,124.29,84.0,77,68,5.99,North
korla,41.76,86.15,88.05,17,0,9.75,North
manica,49.0,-1.17,55.4,76,0,4.83,North
nevsehir,38.92,34.67,59.0,67,0,4.7,North
kyenjojo,0.63,30.62,61.05,85,36,2.19,North
shenxian,36.24,115.67,79.25,89,100,4.79,North
qingdao,36.1,120.37,82.99,88,75,4.47,North
hare bay,48.85,-54.01,51.8,87,90,16.11,North
anito,12.45,125.29,80.33,86,100,4.97,North
laurel,39.1,-76.85,77.0,94,20,10.29,North
ndele,8.41,20.65,69.37,96,100,4.41,North
erenhot,43.65,111.98,78.75,40,17,14.23,North
pueblo,38.25,-104.61,89.6,27,1,16.11,North
la ronge,55.1,-105.28,77.0,41,20,8.05,North
biloela,-24.42,150.5,74.28,43,0,8.23,South
paamiut,61.99,-49.67,44.76,88,51,20.98,North
nemuro,43.32,145.57,80.6,83,75,12.75,North
mecca,21.43,39.83,82.92,71,27,10.38,North
bratsk,56.13,101.61,60.8,82,20,2.24,North
carballo,43.21,-8.69,60.8,93,22,1.12,North
springhill,33.01,-93.47,73.99,70,0,1.57,North
camacha,33.08,-16.33,71.6,78,40,11.41,North
boende,-0.22,20.87,72.07,92,100,1.88,South
marsala,37.8,12.44,68.0,71,0,1.01,North
aswan,24.09,32.91,89.56,23,0,6.46,North
nuevitas,21.55,-77.26,77.0,100,10,6.93,North
walvis bay,-22.96,14.51,57.0,93,0,6.93,South
lavrentiya,65.58,-171.0,47.95,76,81,9.22,North
leshukonskoye,64.9,45.76,57.72,91,100,6.8,North
boyolangu,-8.12,111.89,77.85,77,90,8.77,South
pisco,-13.7,-76.22,62.6,77,75,2.24,South
atar,20.52,-13.05,85.98,56,0,14.74,North
peleduy,59.63,112.74,75.79,49,55,5.39,North
aleksandro-nevskiy,53.48,40.21,57.72,83,0,4.16,North
nantucket,41.28,-70.1,72.0,94,40,18.34,North
pindiga,9.98,10.93,68.29,100,33,6.89,North
yar-sale,66.83,70.83,61.68,61,0,10.16,North
chernenko,44.37,39.31,55.26,76,0,3.76,North
inhambane,-23.86,35.38,62.71,87,0,4.63,South
bilibino,68.05,166.44,48.29,66,100,7.05,North
basco,20.45,121.97,84.7,80,100,15.52,North
takoradi,4.88,-1.76,71.19,86,13,8.01,North
kailua,21.4,-157.74,87.8,58,40,13.87,North
tymovskoye,50.85,142.66,53.58,94,100,2.28,North
bowen,-20.02,148.23,78.01,64,1,4.7,South
hongjiang,27.11,110.0,89.46,59,7,4.45,North
venice,27.1,-82.45,82.99,83,1,6.93,North
funtua,11.52,7.31,68.25,96,95,10.92,North
bukachacha,52.98,116.92,58.89,91,100,2.84,North
guayaramerin,-10.84,-65.36,74.55,46,0,0.29,South
buraydah,26.33,43.98,80.6,30,0,6.93,North
ambulu,-8.35,113.61,80.94,68,43,6.31,South
aguimes,27.91,-15.45,73.4,73,40,23.04,North
maniitsoq,65.42,-52.9,45.16,84,100,9.71,North
mackenzie,55.3,-123.17,69.8,46,90,9.17,North
agua verde,22.9,-106.05,87.01,74,75,3.36,North
am timan,11.03,20.28,71.89,95,99,8.34,North
pemba,-12.97,40.52,69.8,88,20,6.93,South
nurota,40.56,65.69,75.2,41,0,9.17,North
karonga,-9.93,33.93,66.18,73,2,4.41,South
catalao,-18.17,-47.95,57.49,48,0,5.08,South
shenkursk,62.11,42.9,59.59,96,99,6.76,North
krasnyy chikoy,50.36,108.75,69.49,61,1,3.06,North
vostok,46.49,135.88,69.12,96,92,2.17,North
umm kaddadah,13.6,26.69,80.82,62,43,11.95,North
plastun,44.76,136.29,65.44,82,100,4.7,North
lima,-12.04,-77.03,60.8,82,90,10.29,South
cockburn town,21.46,-71.14,83.12,85,14,19.19,North
naze,28.37,129.48,89.6,74,75,9.17,North
red bluff,40.18,-122.24,100.4,17,1,13.87,North
liku,-0.73,119.89,84.67,66,100,1.28,South
bairnsdale,-37.83,147.62,54.0,63,11,5.01,South
ozinki,51.18,49.68,62.76,92,100,16.96,North
mahajanga,-15.72,46.32,66.78,66,15,12.15,South
dandong,40.13,124.39,75.42,94,100,2.53,North
huilong,31.81,121.66,87.01,96,100,7.0,North
yakeshi,49.28,120.73,66.81,82,100,4.18,North
port moresby,-9.44,147.18,82.4,78,75,11.41,South
turan,16.07,108.22,91.4,63,75,3.09,North
tecoanapa,16.52,-98.75,82.31,82,100,5.28,North
chepareria,1.31,35.2,60.19,84,99,2.35,North
sorland,67.67,12.69,55.8,83,87,16.13,North
mauganj,24.68,81.88,79.05,91,100,7.99,North
kaeo,-35.1,173.78,62.01,3,80,5.99,South
la pintada,5.75,-75.61,60.8,87,20,2.24,North
gizo,-8.1,156.84,84.63,74,17,9.64,South
along,28.17,94.77,81.54,79,99,1.43,North
oum hadjer,13.3,19.7,77.04,80,32,7.81,North
lichinga,-13.31,35.24,54.5,78,16,4.5,South
laela,-8.57,32.05,53.2,82,0,2.86,South
bacolod,10.67,122.95,85.1,71,100,1.77,North
port hedland,-20.32,118.57,73.4,33,100,11.41,South
avera,33.19,-82.53,77.0,94,1,3.36,North
thung song,8.16,99.68,84.2,89,40,2.57,North
hiji,33.37,131.53,78.8,83,75,4.7,North
changtu,42.78,124.1,82.78,47,40,6.26,North
hamilton,39.18,-84.53,70.0,82,20,6.73,North
marienburg,54.04,19.03,54.0,100,0,5.64,North
mount isa,-20.73,139.5,82.4,15,0,10.29,South
sunndalsora,62.68,8.55,51.8,93,85,12.75,North
awjilah,29.11,21.29,79.02,36,0,8.93,North
santiago del estero,-27.8,-64.26,78.49,33,0,11.99,South
arlit,18.74,7.39,90.23,38,6,11.16,North
port blair,11.67,92.75,83.16,79,100,20.8,North
aklavik,68.22,-135.01,55.4,82,90,9.17,North
bouake,7.69,-5.02,71.6,78,0,4.7,North
manaus,-3.1,-60.02,82.4,88,3,2.24,South
bulgan,48.81,103.53,61.38,87,100,4.32,North
noumea,-22.28,166.46,78.8,41,90,10.29,South
muskegon,43.3,-86.13,66.2,52,40,10.29,North
saryozek,44.36,77.98,79.07,25,0,2.64,North
madera,37.17,-119.83,90.0,19,0,1.99,North
deputatskiy,69.3,139.9,62.6,39,10,3.36,North
kovdor,67.57,30.48,50.83,95,39,4.99,North
hellvik,59.92,5.78,57.99,78,100,15.99,North
warsaw,52.23,21.01,60.01,93,20,6.93,North
male,4.17,73.51,84.2,79,75,11.41,North
teknaf,20.86,92.31,81.01,90,100,16.04,North
meulaboh,4.14,96.13,79.29,71,100,3.09,North
kalabo,-14.97,22.68,53.17,43,0,4.52,South
ostersund,63.18,14.64,48.2,93,60,6.93,North
monte alegre,-2.01,-54.07,75.52,88,11,3.98,South
bathsheba,13.22,-59.52,82.4,74,40,12.75,North
patrocinio,-18.94,-46.99,59.0,54,0,9.17,South
upata,8.01,-62.4,77.0,91,98,1.01,North
vila franca do campo,37.72,-25.43,71.6,88,40,8.05,North
abu kamal,34.45,40.92,78.33,48,0,15.52,North
reitz,-27.8,28.43,39.06,82,0,9.91,South
novopokrovka,49.84,36.55,60.8,72,0,5.79,North
buarcos,40.17,-8.88,63.0,93,90,8.05,North
zhanaozen,43.3,52.8,65.34,75,0,7.18,North
huarmey,-10.07,-78.15,59.13,85,0,7.83,South
estelle,29.85,-90.11,88.0,77,0,6.91,North
rurrenabaque,-14.44,-67.53,71.47,58,0,2.04,South
sung noen,14.9,101.82,84.99,88,75,3.36,North
veinticinco de mayo,-35.43,-60.17,66.99,69,100,5.01,South
coquimbo,-29.95,-71.34,53.6,87,90,6.93,South
elko,41.0,-115.5,91.99,4,0,8.01,North
zaidpur,26.83,81.33,86.0,84,90,10.29,North
colesberg,-30.72,25.1,37.72,86,0,10.8,South
aipe,3.22,-75.24,75.69,54,57,4.12,North
kasongo-lunda,-6.47,16.82,67.01,69,43,1.63,South
veraval,20.9,70.37,83.59,84,100,16.28,North
ambunti,-4.24,142.84,81.18,91,100,1.7,South
santa maria,-29.68,-53.81,62.78,90,0,5.59,South
namatanai,-3.67,152.43,83.34,76,86,10.07,South
kemin,42.78,75.69,74.53,37,0,4.65,North
qianan,44.99,124.06,79.45,58,0,7.34,North
zambezi,-13.54,23.1,54.07,47,0,3.29,South
